{
  "profiles": [
    {
      "id": "1",
      "name": "John Doe",
      "email": "john@example.com",
      "location": "Pune",
      "image": "https://randomuser.me/api/portraits/men/32.jpg",
      "description": "Software Engineer at Google",
      "lat": 18.5204,
      "lng": 73.8567
    },
    {
      "id": "2",
      "name": "Jane Smith",
      "email": "jane@example.com",
      "location": "New York",
      "image": "https://randomuser.me/api/portraits/women/45.jpg",
      "description": "Product Designer at Apple",
      "lat": 40.7128,
      "lng": 74.006
    },
    {
      "id": "3",
      "name": "Alex Johnson",
      "email": "alex@example.com",
      "location": "Los Angeles",
      "image": "https://randomuser.me/api/portraits/men/75.jpg",
      "description": "Data Scientist at Meta",
      "lat": 34.0549,
      "lng": 118.2426
    },
    {
      "id": "4",
      "name": "Emily Davis",
      "email": "emily@example.com",
      "location": "Seattle",
      "image": "https://randomuser.me/api/portraits/women/65.jpg",
      "description": "Marketing Manager at Amazon",
      "lat": 47.6061,
      "lng": 122.3328
    },
    {
      "id": "5",
      "name": "Michael Brown",
      "email": "Michael@example.com",
      "location": "Chicago",
      "image": "https://randomuser.me/api/portraits/men/52.jpg",
      "description": "Cybersecurity Specialist at IBM",
      "lat": 41.8781,
      "lng": 87.6298
    },
    {
      "id": "6",
      "name": "Sophia Wilson",
      "email": "sophia@example.com",
      "location": "Austin",
      "image": "https://randomuser.me/api/portraits/women/33.jpg",
      "description": "UX/UI Designer at Tesla",
      "lat": 30.2672,
      "lng": 97.7431
    },
    {
      "id": "7",
      "name": "Sharmaji Ka bada Beta",
      "email": "beta@example.com",
      "image": "https://plus.unsplash.com/premium_photo-1689568126014-06fea9d5d341?fm=jpg&q=60&w=3000&ixlib=rb-4.0.3&ixid=M3wxMjA3fDB8MHxzZWFyY2h8MXx8cHJvZmlsZXxlbnwwfHwwfHx8MA%3D%3D",
      "location": "Nashik",
      "description": "Working at bynry.inc",
      "lat": 18.5204,
      "lng": 73.8567
    }
  ]
}